[
  [
    {
      "name": "Ben Arous",
      "adress": "Avenue du 14 Janvier 2011، Ben Arous",
      "coords": {
        "latitude": 36.755235,
        "longitude": 10.220408
      }
    },
    {
      "name": "Echebbi",
      "adress": "Avenue du 14 Janvier 2011، Ben Arous",
      "coords": {
        "latitude": 36.752261,
        "longitude": 10.214735
      }
    },
    {
      "name": "Cité Ennour",
      "adress": "Cité ennour, Ben Arous",
      "coords": {
        "latitude": 36.75149,
        "longitude": 10.204756
      }
    },
    {
      "name": "El Ouardia",
      "adress": "Tunis",
      "coords": {
        "latitude": 36.754313,
        "longitude": 10.199006
      }
    },
    {
      "name": "Ibn Sina",
      "adress": "Tunis",
      "coords": {
        "latitude": 36.754287,
        "longitude": 10.193931
      }
    },
    {
      "name": "El Kabaria",
      "adress": "El Kabaria, Tunis, تونس",
      "coords": {
        "latitude": 36.759737,
        "longitude": 10.190712
      }
    },
    {
      "name": "Mohamed Ali",
      "adress": "El Kabaria, Tunis, تونس",
      "coords": {
        "latitude": 36.767756,
        "longitude": 10.184049
      }
    },
    {
      "name": "13 Aout",
      "adress": "Tunis",
      "coords": {
        "latitude": 36.775173,
        "longitude": 10.179275
      }
    },
    {
      "name": "Mohamed Manachou",
      "adress": "Rue Poncelet, Tunis",
      "coords": {
        "latitude": 36.782071,
        "longitude": 10.179942
      }
    },
    {
      "name": "bab Alioua",
      "adress": "Montfleury, Tunis",
      "coords": {
        "latitude": 36.785779,
        "longitude": 10.179726
      }
    },
    {
      "name": "Barcelona",
      "adress": "Tunis",
      "coords": {
        "latitude": 36.796067,
        "longitude": 10.180479
      }
    },
    {
      "name": "Farhat Hached",
      "adress": "Tunis",
      "coords": {
        "latitude": 36.797975,
        "longitude": 10.18608
      }
    },
    {
      "name": "Tunis Marine",
      "adress": "Tunis",
      "coords": {
        "latitude": 36.800243,
        "longitude": 10.192813
      }
    }
  ],
  [
    {
      "name": "Ariana terminal",
      "adress": "Rue De Beyrouth، Ariana",
      "coords": {
        "latitude": 36.859708,
        "longitude": 10.197498
      }
    },
    {
      "name": "L'indpendance",
      "adress": "Ariana",
      "coords": {
        "latitude": 36.854508,
        "longitude": 10.195847
      }
    },
    {
      "name": "El Fell",
      "adress": "Ariana",
      "coords": {
        "latitude": 36.847,
        "longitude": 10.19239
      }
    },
    {
      "name": "10 Décembre",
      "adress": "Avenue Hedi Karray, Tunis",
      "coords": {
        "latitude": 36.844371,
        "longitude": 10.184223
      }
    },
    {
      "name": "Cité Sportive",
      "adress": "Tunis",
      "coords": {
        "latitude": 36.838559,
        "longitude": 10.18198
      }
    },
    {
      "name": "La jeunesse",
      "adress": "Avenue Tahar Ben Anchour, Tunis",
      "coords": {
        "latitude": 36.833321,
        "longitude": 10.182881
      }
    },
    {
      "name": "Cité el Khadra",
      "adress": "Cité El Khadra, Tunis",
      "coords": {
        "latitude": 36.829246,
        "longitude": 10.19037
      }
    },
    {
      "name": "Lafayet",
      "adress": "Cite Jardins, Tunis",
      "coords": {
        "latitude": 36.823315,
        "longitude": 10.18547
      }
    },
    {
      "name": "Palestine",
      "adress": "Avenue Louis Braille, Tunis",
      "coords": {
        "latitude": 36.820034,
        "longitude": 10.181994
      }
    },
    {
      "name": "Mohamed V",
      "adress": "Rue Chabane El Bhouri, Tunis",
      "coords": {
        "latitude": 36.815802,
        "longitude": 10.18347
      }
    },
    {
      "name": "Nelson Mandella",
      "adress": "La Fayette, Tunis",
      "coords": {
        "latitude": 36.812581,
        "longitude": 10.183373
      }
    },
    {
      "name": "Place de la Republique",
      "adress": "Tunis 1001",
      "coords": {
        "latitude": 36.806497,
        "longitude": 10.180767
      }
    },
    {
      "name": "Ibn Rachid",
      "adress": "22 Avenue de Paris, Tunis",
      "coords": {
        "latitude": 36.802044,
        "longitude": 10.180942
      }
    },
    {
      "name": "Place de Barcelona",
      "adress": "33, Avenue de la Gare, Place Barcelone, Tunis 1001",
      "coords": {
        "latitude": 36.796065,
        "longitude": 10.180462
      }
    },
    {
      "name": "Farhat Hached",
      "adress": "34-26 Ave Farhat Hached, Tunis",
      "coords": {
        "latitude": 36.79791,
        "longitude": 10.186117
      }
    }
  ],
  [
    {
      "name": "Ibn Khaldoun ",
      "adress": "Tunis",
      "coords": {
        "latitude": 36.831065,
        "longitude": 10.134592
      }
    },
    {
      "name": "Les Jasmins",
      "adress": "MC N 130, Tunis",
      "coords": {
        "latitude": 36.825724,
        "longitude": 10.134565
      }
    },
    {
      "name": "14 Janvier",
      "adress": "Boulevard Mohamed Bouazizi, Tunis",
      "coords": {
        "latitude": 36.822761,
        "longitude": 10.13994
      }
    },
    {
      "name": "Campus",
      "adress": "Tunis",
      "coords": {
        "latitude": 36.826274,
        "longitude": 10.144339
      }
    },
    {
      "name": "Rommana",
      "adress": "Jbal Lahmar, Tunis",
      "coords": {
        "latitude": 36.823518,
        "longitude": 10.15097
      }
    },
    {
      "name": "Mefteh Saadallah",
      "adress": "Tunis",
      "coords": {
        "latitude": 36.813022,
        "longitude": 10.156367
      }
    },
    {
      "name": "Bab Saadoun",
      "adress": "Avenue Ouled Hafouz, Tunis",
      "coords": {
        "latitude": 36.809642,
        "longitude": 10.161568
      }
    },
    {
      "name": "Bab Laasal",
      "adress": "Avenue Béchir Sfar، Tunis",
      "coords": {
        "latitude": 36.813069,
        "longitude": 10.169293
      }
    },
    {
      "name": "Bab El Khadra",
      "adress": "Bab El Khadra, Tunis",
      "coords": {
        "latitude": 36.810432,
        "longitude": 10.17234
      }
    },
    {
      "name": "Place de la Republique",
      "adress": "Tunis 1001",
      "coords": {
        "latitude": 36.806497,
        "longitude": 10.180767
      }
    },
    {
      "name": "Ibn Rachid",
      "adress": "22 Avenue de Paris, Tunis",
      "coords": {
        "latitude": 36.802044,
        "longitude": 10.180942
      }
    },
    {
      "name": "Barcelona",
      "adress": "Tunis",
      "coords": {
        "latitude": 36.796067,
        "longitude": 10.180479
      }
    },
    {
      "name": "Farhat Hached",
      "adress": "Tunis",
      "coords": {
        "latitude": 36.797975,
        "longitude": 10.18608
      }
    },
    {
      "name": "Tunis Marine",
      "adress": "Tunis",
      "coords": {
        "latitude": 36.800243,
        "longitude": 10.192813
      }
    }
  ],
  [
    {
      "name": "Kheireddine",
      "adress": "Manouba",
      "coords": {
        "latitude": 36.815352,
        "longitude": 10.056477
      }
    },
    {
      "name": "Campus Universitaire",
      "adress": "Manouba",
      "coords": {
        "latitude": 36.812906,
        "longitude": 10.06196
      }
    },
    {
      "name": "Palais EL-Warda",
      "adress": "Manouba",
      "coords": {
        "latitude": 36.81026,
        "longitude": 10.067882
      }
    },
    {
      "name": "Technopole",
      "adress": "Manouba",
      "coords": {
        "latitude": 36.809092,
        "longitude": 10.075489
      }
    },
    {
      "name": "Aboubaker Errazi",
      "adress": "Manouba 2010",
      "coords": {
        "latitude": 36.807356,
        "longitude": 10.082398
      }
    },
    {
      "name": "Moncef bay",
      "adress": "Manouba",
      "coords": {
        "latitude": 36.805174,
        "longitude": 10.090842
      }
    },
    {
      "name": "Slimane Kehia",
      "adress": "Manouba 2010",
      "coords": {
        "latitude": 36.803158,
        "longitude": 10.09907
      }
    },
    {
      "name": "Manouba",
      "adress": "Avenue de L’indépendance, Manouba",
      "coords": {
        "latitude": 36.802081,
        "longitude": 10.102665
      }
    },
    {
      "name": "Denden",
      "adress": "Manouba",
      "coords": {
        "latitude": 36.802243,
        "longitude": 10.110743
      }
    },
    {
      "name": "L'artisana",
      "adress": "P5",
      "coords": {
        "latitude": 36.802844,
        "longitude": 10.116047
      }
    },
    {
      "name": "Khaznadar",
      "adress": "P5",
      "coords": {
        "latitude": 36.804184,
        "longitude": 10.12183
      }
    },
    {
      "name": "Essaidia",
      "adress": "P5",
      "coords": {
        "latitude": 36.805335,
        "longitude": 10.126808
      }
    },
    {
      "name": "Bardo",
      "adress": "Imp. Bouchoucha, Tunis",
      "coords": {
        "latitude": 36.807251,
        "longitude": 10.135337
      }
    },
    {
      "name": "20 Mars",
      "adress": "Imp. Bouchoucha, Tunis",
      "coords": {
        "latitude": 36.808247,
        "longitude": 10.14318
      }
    },
    {
      "name": "Bouchoucha",
      "adress": "Imp. Bouchoucha, Tunis",
      "coords": {
        "latitude": 36.809046,
        "longitude": 10.150637
      }
    },
    {
      "name": "Bab Saadoun",
      "adress": "Avenue Ouled Hafouz, Tunis",
      "coords": {
        "latitude": 36.809642,
        "longitude": 10.161568
      }
    },
    {
      "name": "Bab Laasal",
      "adress": "Avenue Béchir Sfar، Tunis",
      "coords": {
        "latitude": 36.813069,
        "longitude": 10.169293
      }
    },
    {
      "name": "Bab El Khadra",
      "adress": "Bab El Khadra, Tunis",
      "coords": {
        "latitude": 36.810432,
        "longitude": 10.17234
      }
    },
    {
      "name": "Place de la Republique",
      "adress": "Tunis 1001",
      "coords": {
        "latitude": 36.806497,
        "longitude": 10.180767
      }
    },
    {
      "name": "Ibn Rachid",
      "adress": "22 Avenue de Paris, Tunis",
      "coords": {
        "latitude": 36.802044,
        "longitude": 10.180942
      }
    },
    {
      "name": "Barcelona",
      "adress": "Tunis",
      "coords": {
        "latitude": 36.796067,
        "longitude": 10.180479
      }
    },
    {
      "name": "Farhat Hached",
      "adress": "Tunis",
      "coords": {
        "latitude": 36.797975,
        "longitude": 10.18608
      }
    },
    {
      "name": "Tunis Marine",
      "adress": "Tunis",
      "coords": {
        "latitude": 36.800243,
        "longitude": 10.192813
      }
    }
  ],
  [
    {
      "name": "Intilaka",
      "adress": "Tunis",
      "coords": {
        "latitude": 36.839549,
        "longitude": 10.116905
      }
    },
    {
      "name": "Ettadhamen",
      "adress": "Tunis",
      "coords": {
        "latitude": 36.835754,
        "longitude": 10.11757
      }
    },
    {
      "name": "Omrane Superieur",
      "adress": "Rue 62126، Tunis",
      "coords": {
        "latitude": 36.830516,
        "longitude": 10.124136
      }
    },
    {
      "name": "Etahrir",
      "adress": "Tunis",
      "coords": {
        "latitude": 36.829151,
        "longitude": 10.128546
      }
    },
    {
      "name": "Les Jasmins",
      "adress": "MC N 130, Tunis",
      "coords": {
        "latitude": 36.825724,
        "longitude": 10.134565
      }
    },
    {
      "name": "14 Janvier",
      "adress": "Boulevard Mohamed Bouazizi, Tunis",
      "coords": {
        "latitude": 36.822761,
        "longitude": 10.13994
      }
    },
    {
      "name": "Campus",
      "adress": "Tunis",
      "coords": {
        "latitude": 36.826274,
        "longitude": 10.144339
      }
    },
    {
      "name": "Rommana",
      "adress": "Jbal Lahmar, Tunis",
      "coords": {
        "latitude": 36.823518,
        "longitude": 10.15097
      }
    },
    {
      "name": "Mefteh Saadallah",
      "adress": "Tunis",
      "coords": {
        "latitude": 36.813022,
        "longitude": 10.156367
      }
    },
    {
      "name": "Bab Saadoun",
      "adress": "Avenue Ouled Hafouz, Tunis",
      "coords": {
        "latitude": 36.809642,
        "longitude": 10.161568
      }
    },
    {
      "name": "Bab Laasal",
      "adress": "Avenue Béchir Sfar، Tunis",
      "coords": {
        "latitude": 36.813069,
        "longitude": 10.169293
      }
    },
    {
      "name": "Bab El Khadra",
      "adress": "Bab El Khadra, Tunis",
      "coords": {
        "latitude": 36.810432,
        "longitude": 10.17234
      }
    },
    {
      "name": "Place de la Republique",
      "adress": "Tunis 1001",
      "coords": {
        "latitude": 36.806497,
        "longitude": 10.180767
      }
    },
    {
      "name": "Ibn Rachid",
      "adress": "22 Avenue de Paris, Tunis",
      "coords": {
        "latitude": 36.802044,
        "longitude": 10.180942
      }
    },
    {
      "name": "Barcelona",
      "adress": "Tunis",
      "coords": {
        "latitude": 36.796067,
        "longitude": 10.180479
      }
    },
    {
      "name": "Farhat Hached",
      "adress": "Tunis",
      "coords": {
        "latitude": 36.797975,
        "longitude": 10.18608
      }
    },
    {
      "name": "Tunis Marine",
      "adress": "Tunis",
      "coords": {
        "latitude": 36.800243,
        "longitude": 10.192813
      }
    }
  ],
  [
    {
      "name": "Mourouj 4",
      "adress": "Al Mourouj 4, El Mourouj",
      "coords": {
        "latitude": 36.719722,
        "longitude": 10.216319
      }
    },
    {
      "name": "Martyrs",
      "adress": "Avenue Martyrs, El Mourouj",
      "coords": {
        "latitude": 36.723594,
        "longitude": 10.212086
      }
    },
    {
      "name": "El Mpourouj 3",
      "adress": "El Mourouj 3, El Mourouj",
      "coords": {
        "latitude": 36.728693,
        "longitude": 10.210841
      }
    },
    {
      "name": "Environnement",
      "adress": "Avenue Martyrs, El Mourouj",
      "coords": {
        "latitude": 36.733465,
        "longitude": 10.210122
      }
    },
    {
      "name": "El Mourouj 1",
      "adress": "18 Avenue Martyrs, El Mourouj",
      "coords": {
        "latitude": 36.738691,
        "longitude": 10.206069
      }
    },
    {
      "name": "El Montazah",
      "adress": "El Mourouj 2, Tunis",
      "coords": {
        "latitude": 36.742876,
        "longitude": 10.193507
      }
    },
    {
      "name": "Ennesri",
      "adress": "Tunis",
      "coords": {
        "latitude": 36.745129,
        "longitude": 10.190294
      }
    },
    {
      "name": "Cité Municipale",
      "adress": "Tunis",
      "coords": {
        "latitude": 36.748568,
        "longitude": 10.188642
      }
    },
    {
      "name": "Gazeli",
      "adress": "Tunis",
      "coords": {
        "latitude": 36.754671,
        "longitude": 10.187632
      }
    },
    {
      "name": "Tahar Haddad",
      "adress": "Tunis",
      "coords": {
        "latitude": 36.760662,
        "longitude": 10.186892
      }
    },
    {
      "name": "Mohamed Ali",
      "adress": "El Kabaria, Tunis, تونس",
      "coords": {
        "latitude": 36.767756,
        "longitude": 10.184049
      }
    },
    {
      "name": "13 Aout",
      "adress": "Tunis",
      "coords": {
        "latitude": 36.775173,
        "longitude": 10.179275
      }
    },
    {
      "name": "Mohamed Manachou",
      "adress": "Rue Poncelet, Tunis",
      "coords": {
        "latitude": 36.782071,
        "longitude": 10.179942
      }
    },
    {
      "name": "bab Alioua",
      "adress": "Montfleury, Tunis",
      "coords": {
        "latitude": 36.785779,
        "longitude": 10.179726
      }
    },
    {
      "name": "Barcelona",
      "adress": "Tunis",
      "coords": {
        "latitude": 36.796067,
        "longitude": 10.180479
      }
    },
    {
      "name": "Farhat Hached",
      "adress": "Tunis",
      "coords": {
        "latitude": 36.797975,
        "longitude": 10.18608
      }
    },
    {
      "name": "Tunis Marine",
      "adress": "Tunis",
      "coords": {
        "latitude": 36.800243,
        "longitude": 10.192813
      }
    }
  ]
]
